[
  {
    "_id": 0,
    "name": "Pate Acosta",
    "contact": "+91(900) 433-3018",
    "vehicle": "RJ8564",
    "lati": -76.005763,
    "longi": 160.95237,
    "isActive": true
  },
  {
    "_id": 1,
    "name": "Koch Bernard",
    "contact": "+91(978) 589-2211",
    "vehicle": "RJ8552",
    "lati": 46.190535,
    "longi": 128.187694,
    "isActive": false
  },
  {
    "_id": 2,
    "name": "Dillard Bond",
    "contact": "+91(966) 470-3870",
    "vehicle": "RJ3922",
    "lati": -58.554743,
    "longi": 42.091785,
    "isActive": true
  },
  {
    "_id": 3,
    "name": "Dionne Collins",
    "contact": "+91(895) 483-2781",
    "vehicle": "RJ6463",
    "lati": 17.310578,
    "longi": 161.220205,
    "isActive": true
  },
  {
    "_id": 4,
    "name": "Olsen Shaffer",
    "contact": "+91(860) 423-2506",
    "vehicle": "RJ3093",
    "lati": -20.293865,
    "longi": -96.442929,
    "isActive": true
  },
  {
    "_id": 5,
    "name": "Rachel Bradley",
    "contact": "+91(995) 437-3989",
    "vehicle": "RJ9379",
    "lati": -4.64958,
    "longi": -5.466964,
    "isActive": false
  },
  {
    "_id": 6,
    "name": "Manning Howard",
    "contact": "+91(935) 414-2300",
    "vehicle": "RJ8073",
    "lati": -60.432914,
    "longi": 122.25889,
    "isActive": false
  },
  {
    "_id": 7,
    "name": "Baldwin Franks",
    "contact": "+91(928) 469-2618",
    "vehicle": "RJ7931",
    "lati": -6.656551,
    "longi": -60.922801,
    "isActive": true
  },
  {
    "_id": 8,
    "name": "Miranda Cooper",
    "contact": "+91(896) 549-3662",
    "vehicle": "RJ2084",
    "lati": 88.936548,
    "longi": -76.269165,
    "isActive": false
  },
  {
    "_id": 9,
    "name": "Key Erickson",
    "contact": "+91(915) 490-2518",
    "vehicle": "RJ9954",
    "lati": -39.048155,
    "longi": 162.014392,
    "isActive": false
  },
  {
    "_id": 10,
    "name": "Figueroa Reeves",
    "contact": "+91(992) 572-2541",
    "vehicle": "RJ6994",
    "lati": -29.496167,
    "longi": -22.406668,
    "isActive": true
  },
  {
    "_id": 11,
    "name": "Stewart Best",
    "contact": "+91(815) 517-3997",
    "vehicle": "RJ4370",
    "lati": -27.826623,
    "longi": 46.093918,
    "isActive": true
  },
  {
    "_id": 12,
    "name": "Long Gordon",
    "contact": "+91(803) 429-3161",
    "vehicle": "RJ7536",
    "lati": 32.346513,
    "longi": -93.4,
    "isActive": false
  },
  {
    "_id": 13,
    "name": "Lester Patterson",
    "contact": "+91(928) 487-3687",
    "vehicle": "RJ6875",
    "lati": 34.741889,
    "longi": -136.279447,
    "isActive": true
  },
  {
    "_id": 14,
    "name": "Shelton Thompson",
    "contact": "+91(927) 600-3047",
    "vehicle": "RJ2382",
    "lati": -38.386277,
    "longi": 88.703997,
    "isActive": true
  },
  {
    "_id": 15,
    "name": "Powers Lester",
    "contact": "+91(805) 505-3931",
    "vehicle": "RJ5106",
    "lati": -79.496402,
    "longi": -119.161016,
    "isActive": true
  },
  {
    "_id": 16,
    "name": "Ford Andrews",
    "contact": "+91(869) 409-3936",
    "vehicle": "RJ9472",
    "lati": 39.67459,
    "longi": -68.715124,
    "isActive": false
  },
  {
    "_id": 17,
    "name": "Sue Wilkinson",
    "contact": "+91(886) 427-2649",
    "vehicle": "RJ7793",
    "lati": 54.188027,
    "longi": 169.406761,
    "isActive": true
  },
  {
    "_id": 18,
    "name": "Cote Atkins",
    "contact": "+91(889) 519-2909",
    "vehicle": "RJ8150",
    "lati": 15.861941,
    "longi": -175.217137,
    "isActive": true
  },
  {
    "_id": 19,
    "name": "Duke Clark",
    "contact": "+91(901) 415-2285",
    "vehicle": "RJ1957",
    "lati": -63.391382,
    "longi": -152.050174,
    "isActive": true
  },
  {
    "_id": 20,
    "name": "Ortiz Cardenas",
    "contact": "+91(807) 435-3540",
    "vehicle": "RJ2555",
    "lati": -27.02749,
    "longi": 47.271792,
    "isActive": false
  },
  {
    "_id": 21,
    "name": "Gill Small",
    "contact": "+91(979) 506-2580",
    "vehicle": "RJ5711",
    "lati": -3.020378,
    "longi": 5.925245,
    "isActive": true
  },
  {
    "_id": 22,
    "name": "Lana Castro",
    "contact": "+91(866) 536-3642",
    "vehicle": "RJ8210",
    "lati": 43.189202,
    "longi": -128.201682,
    "isActive": false
  },
  {
    "_id": 23,
    "name": "Richards Leonard",
    "contact": "+91(923) 488-3910",
    "vehicle": "RJ7997",
    "lati": 35.336635,
    "longi": 29.089316,
    "isActive": true
  },
  {
    "_id": 24,
    "name": "Riggs Robertson",
    "contact": "+91(933) 405-2249",
    "vehicle": "RJ7575",
    "lati": 33.712812,
    "longi": 170.781228,
    "isActive": false
  },
  {
    "_id": 25,
    "name": "Garrett George",
    "contact": "+91(977) 582-3386",
    "vehicle": "RJ3155",
    "lati": 64.90249,
    "longi": -159.777413,
    "isActive": true
  },
  {
    "_id": 26,
    "name": "Amy Bartlett",
    "contact": "+91(930) 421-2655",
    "vehicle": "RJ5687",
    "lati": 53.660477,
    "longi": -149.790386,
    "isActive": false
  },
  {
    "_id": 27,
    "name": "Inez Odonnell",
    "contact": "+91(861) 584-3633",
    "vehicle": "RJ9612",
    "lati": -18.439501,
    "longi": -131.515168,
    "isActive": false
  },
  {
    "_id": 28,
    "name": "Delacruz Moran",
    "contact": "+91(999) 497-3184",
    "vehicle": "RJ3081",
    "lati": -23.28467,
    "longi": 46.967241,
    "isActive": false
  },
  {
    "_id": 29,
    "name": "Annmarie Pratt",
    "contact": "+91(915) 443-2634",
    "vehicle": "RJ8824",
    "lati": 7.974398,
    "longi": 144.296659,
    "isActive": true
  }
]